[
  {
    "nombre": "Alba Posse",
    "provincia": "Misiones",
    "latitud": -27.55,
    "longitud": -54.7
  },
  {
    "nombre": "Almafuerte",
    "provincia": "Misiones",
    "latitud": -27.51667,
    "longitud": -55.4
  },
  {
    "nombre": "Apostoles",
    "provincia": "Misiones",
    "latitud": -27.91667,
    "longitud": -55.76667
  },
  {
    "nombre": "Aristobulo del Valle",
    "provincia": "Misiones",
    "latitud": -27.11667,
    "longitud": -54.91667
  },
  {
    "nombre": "Arroyo Tomas",
    "provincia": "Misiones",
    "latitud": -27.65,
    "longitud": -55.63333
  },
  {
    "nombre": "Azara",
    "provincia": "Misiones",
    "latitud": -28.06667,
    "longitud": -55.68333
  },
  {
    "nombre": "Barra Bonita",
    "provincia": "Misiones",
    "latitud": -27.58333,
    "longitud": -54.85
  },
  {
    "nombre": "Barra Concepcion",
    "provincia": "Misiones",
    "latitud": -28.11667,
    "longitud": -55.58333
  },
  {
    "nombre": "Bernardo de Irigoyen",
    "provincia": "Misiones",
    "latitud": -26.25,
    "longitud": -53.65
  },
  {
    "nombre": "Caa Yari",
    "provincia": "Misiones",
    "latitud": -27.48333,
    "longitud": -55.31667
  },
  {
    "nombre": "Cabure i",
    "provincia": "Misiones",
    "latitud": -25.68333,
    "longitud": -54.13333
  },
  {
    "nombre": "Campo Ramon",
    "provincia": "Misiones",
    "latitud": -27.46667,
    "longitud": -55.0
  },
  {
    "nombre": "Campo Viera",
    "provincia": "Misiones",
    "latitud": -27.38333,
    "longitud": -55.03333
  },
  {
    "nombre": "Candelaria",
    "provincia": "Misiones",
    "latitud": -27.46667,
    "longitud": -55.73333
  },
  {
    "nombre": "Capiovi",
    "provincia": "Misiones",
    "latitud": -26.93333,
    "longitud": -55.06667
  },
  {
    "nombre": "Capiovicino",
    "provincia": "Misiones",
    "latitud": -26.86667,
    "longitud": -55.05
  },
  {
    "nombre": "Capon Bonito",
    "provincia": "Misiones",
    "latitud": -28.06667,
    "longitud": -55.58333
  },
  {
    "nombre": "Caraguatay",
    "provincia": "Misiones",
    "latitud": -26.61667,
    "longitud": -54.76667
  },
  {
    "nombre": "Cerro Azul",
    "provincia": "Misiones",
    "latitud": -27.63333,
    "longitud": -55.48333
  },
  {
    "nombre": "Colonia Aurora",
    "provincia": "Misiones",
    "latitud": -27.46667,
    "longitud": -54.48333
  },
  {
    "nombre": "Colonia Finlandesa",
    "provincia": "Misiones",
    "latitud": -27.46667,
    "longitud": -55.35
  },
  {
    "nombre": "Colonia Maria Magdalena",
    "provincia": "Misiones",
    "latitud": -26.25,
    "longitud": -54.6
  },
  {
    "nombre": "Colonia Mbopicua",
    "provincia": "Misiones",
    "latitud": -26.9,
    "longitud": -55.05
  },
  {
    "nombre": "Colonia Santa Teresa",
    "provincia": "Misiones",
    "latitud": -26.48333,
    "longitud": -54.56667
  },
  {
    "nombre": "Colonia Wanda",
    "provincia": "Misiones",
    "latitud": -25.96667,
    "longitud": -54.46667
  },
  {
    "nombre": "Colonia Yabebiri",
    "provincia": "Misiones",
    "latitud": -27.45,
    "longitud": -55.3
  },
  {
    "nombre": "Concepcion de la Sierra",
    "provincia": "Misiones",
    "latitud": -27.98333,
    "longitud": -55.51667
  },
  {
    "nombre": "Corpus",
    "provincia": "Misiones",
    "latitud": -27.11667,
    "longitud": -55.51667
  },
  {
    "nombre": "Cuchilla",
    "provincia": "Misiones",
    "latitud": -27.0,
    "longitud": -55.05
  },
  {
    "nombre": "Cunapiru",
    "provincia": "Misiones",
    "latitud": -27.05,
    "longitud": -55.05
  },
  {
    "nombre": "De Mayo",
    "provincia": "Misiones",
    "latitud": -25.91667,
    "longitud": -54.58333
  },
  {
    "nombre": "Departamento de Apostoles",
    "provincia": "Misiones",
    "latitud": -27.91667,
    "longitud": -55.75
  },
  {
    "nombre": "Departamento de Cainguas",
    "provincia": "Misiones",
    "latitud": -27.16667,
    "longitud": -54.83333
  },
  {
    "nombre": "Departamento de Candelaria",
    "provincia": "Misiones",
    "latitud": -27.5,
    "longitud": -55.5
  },
  {
    "nombre": "Departamento de Eldorado",
    "provincia": "Misiones",
    "latitud": -26.25,
    "longitud": -54.41667
  },
  {
    "nombre": "Departamento de General Manuel Belgrano",
    "provincia": "Misiones",
    "latitud": -26.16667,
    "longitud": -53.91667
  },
  {
    "nombre": "Departamento de Guarani",
    "provincia": "Misiones",
    "latitud": -27.16667,
    "longitud": -54.16667
  },
  {
    "nombre": "Departamento de Iguazu",
    "provincia": "Misiones",
    "latitud": -25.86667,
    "longitud": -54.36667
  },
  {
    "nombre": "Departamento de Leandro N Alem",
    "provincia": "Misiones",
    "latitud": -27.56667,
    "longitud": -55.33333
  },
  {
    "nombre": "Departamento de Montecarlo",
    "provincia": "Misiones",
    "latitud": -26.71667,
    "longitud": -54.58333
  },
  {
    "nombre": "Departamento de Obera",
    "provincia": "Misiones",
    "latitud": -27.55,
    "longitud": -55.08333
  },
  {
    "nombre": "Departamento de San Ignacio",
    "provincia": "Misiones",
    "latitud": -27.25,
    "longitud": -55.33333
  },
  {
    "nombre": "Departamento de San Pedro",
    "provincia": "Misiones",
    "latitud": -26.66667,
    "longitud": -54.0
  },
  {
    "nombre": "Departamento de Veinticinco de Mayo",
    "provincia": "Misiones",
    "latitud": -27.41667,
    "longitud": -54.66667
  },
  {
    "nombre": "Departamento LibertadorGeneralSanMartin",
    "provincia": "Misiones",
    "latitud": -26.91667,
    "longitud": -54.91667
  },
  {
    "nombre": "Deseado",
    "provincia": "Misiones",
    "latitud": -25.78333,
    "longitud": -54.05
  },
  {
    "nombre": "Dos Arroyos",
    "provincia": "Misiones",
    "latitud": -27.7,
    "longitud": -55.25
  },
  {
    "nombre": "Dos de Mayo",
    "provincia": "Misiones",
    "latitud": -27.03333,
    "longitud": -54.65
  },
  {
    "nombre": "El Alcazar",
    "provincia": "Misiones",
    "latitud": -26.73333,
    "longitud": -54.78333
  },
  {
    "nombre": "El Soberbio",
    "provincia": "Misiones",
    "latitud": -27.3,
    "longitud": -54.21667
  },
  {
    "nombre": "El Tigre",
    "provincia": "Misiones",
    "latitud": -27.26667,
    "longitud": -54.95
  },
  {
    "nombre": "Eldorado",
    "provincia": "Misiones",
    "latitud": -26.4,
    "longitud": -54.63333
  },
  {
    "nombre": "Estacion Apostoles",
    "provincia": "Misiones",
    "latitud": -27.91667,
    "longitud": -55.8
  },
  {
    "nombre": "Fachinal",
    "provincia": "Misiones",
    "latitud": -27.65,
    "longitud": -55.7
  },
  {
    "nombre": "Florentino",
    "provincia": "Misiones",
    "latitud": -27.11667,
    "longitud": -54.75
  },
  {
    "nombre": "Florentino Ameghino",
    "provincia": "Misiones",
    "latitud": -27.56667,
    "longitud": -55.13333
  },
  {
    "nombre": "Fracran",
    "provincia": "Misiones",
    "latitud": -26.76667,
    "longitud": -54.26667
  },
  {
    "nombre": "Garuhape",
    "provincia": "Misiones",
    "latitud": -26.8,
    "longitud": -54.96667
  },
  {
    "nombre": "Garupa",
    "provincia": "Misiones",
    "latitud": -27.48333,
    "longitud": -55.83333
  },
  {
    "nombre": "General Alberdi",
    "provincia": "Misiones",
    "latitud": -27.35,
    "longitud": -55.18333
  },
  {
    "nombre": "General Alvear",
    "provincia": "Misiones",
    "latitud": -27.43333,
    "longitud": -55.16667
  },
  {
    "nombre": "Gobernador J J Lanusse",
    "provincia": "Misiones",
    "latitud": -25.48333,
    "longitud": -54.25
  },
  {
    "nombre": "Gobernador Roca",
    "provincia": "Misiones",
    "latitud": -27.18333,
    "longitud": -55.46667
  },
  {
    "nombre": "Guarani",
    "provincia": "Misiones",
    "latitud": -27.51667,
    "longitud": -55.16667
  },
  {
    "nombre": "Guardaparque",
    "provincia": "Misiones",
    "latitud": -25.68333,
    "longitud": -54.16667
  },
  {
    "nombre": "Hipolito Yrigoyen",
    "provincia": "Misiones",
    "latitud": -27.1,
    "longitud": -55.28333
  },
  {
    "nombre": "Invernada de Itacaruare",
    "provincia": "Misiones",
    "latitud": -27.81667,
    "longitud": -55.3
  },
  {
    "nombre": "Itacaruare",
    "provincia": "Misiones",
    "latitud": -27.86667,
    "longitud": -55.26667
  },
  {
    "nombre": "Jardin America",
    "provincia": "Misiones",
    "latitud": -27.04346,
    "longitud": -55.22698
  },
  {
    "nombre": "Kilometro 18",
    "provincia": "Misiones",
    "latitud": -26.53333,
    "longitud": -54.58333
  },
  {
    "nombre": "Kilometro 26",
    "provincia": "Misiones",
    "latitud": -27.71667,
    "longitud": -55.28333
  },
  {
    "nombre": "La Gruta",
    "provincia": "Misiones",
    "latitud": -26.83333,
    "longitud": -53.7
  },
  {
    "nombre": "La Reduccion de Santa Ana",
    "provincia": "Misiones",
    "latitud": -27.42,
    "longitud": -55.57
  },
  {
    "nombre": "Las Tunas",
    "provincia": "Misiones",
    "latitud": -27.91667,
    "longitud": -55.65
  },
  {
    "nombre": "Leandro N Alem",
    "provincia": "Misiones",
    "latitud": -27.6,
    "longitud": -55.31667
  },
  {
    "nombre": "Los Galpones",
    "provincia": "Misiones",
    "latitud": -27.8,
    "longitud": -55.21667
  },
  {
    "nombre": "Los Helechos",
    "provincia": "Misiones",
    "latitud": -27.55,
    "longitud": -55.08333
  },
  {
    "nombre": "Martires",
    "provincia": "Misiones",
    "latitud": -27.43333,
    "longitud": -55.38333
  },
  {
    "nombre": "Miguel Lanus",
    "provincia": "Misiones",
    "latitud": -27.43333,
    "longitud": -55.88333
  },
  {
    "nombre": "Mojon Grande",
    "provincia": "Misiones",
    "latitud": -27.71667,
    "longitud": -55.16667
  },
  {
    "nombre": "Monteagudo",
    "provincia": "Misiones",
    "latitud": -27.3,
    "longitud": -54.15
  },
  {
    "nombre": "Montecarlo",
    "provincia": "Misiones",
    "latitud": -26.56667,
    "longitud": -54.78333
  },
  {
    "nombre": "Nacanguazu",
    "provincia": "Misiones",
    "latitud": -27.08333,
    "longitud": -55.45
  },
  {
    "nombre": "Obera",
    "provincia": "Misiones",
    "latitud": -27.48333,
    "longitud": -55.13333
  },
  {
    "nombre": "Panambi",
    "provincia": "Misiones",
    "latitud": -27.71667,
    "longitud": -54.91667
  },
  {
    "nombre": "Parada Leis",
    "provincia": "Misiones",
    "latitud": -27.61667,
    "longitud": -55.83333
  },
  {
    "nombre": "Picada Galitziana",
    "provincia": "Misiones",
    "latitud": -27.55,
    "longitud": -55.46667
  },
  {
    "nombre": "Picada Gobernador Lopez",
    "provincia": "Misiones",
    "latitud": -27.66667,
    "longitud": -55.25
  },
  {
    "nombre": "Picada Sueca",
    "provincia": "Misiones",
    "latitud": -27.56667,
    "longitud": -55.23333
  },
  {
    "nombre": "Pilon",
    "provincia": "Misiones",
    "latitud": -26.03333,
    "longitud": -54.33333
  },
  {
    "nombre": "Pinalitos",
    "provincia": "Misiones",
    "latitud": -25.98333,
    "longitud": -53.9
  },
  {
    "nombre": "Posadas",
    "provincia": "Misiones",
    "latitud": -27.38333,
    "longitud": -55.88333
  },
  {
    "nombre": "Profundidad",
    "provincia": "Misiones",
    "latitud": -27.56667,
    "longitud": -55.71667
  },
  {
    "nombre": "Provincia de Misiones",
    "provincia": "Misiones",
    "latitud": -27.0,
    "longitud": -55.0
  },
  {
    "nombre": "Puerto Avellaneda",
    "provincia": "Misiones",
    "latitud": -26.65,
    "longitud": -54.78333
  },
  {
    "nombre": "Puerto Bossetti",
    "provincia": "Misiones",
    "latitud": -25.86667,
    "longitud": -54.56667
  },
  {
    "nombre": "Puerto Canoas",
    "provincia": "Misiones",
    "latitud": -25.7,
    "longitud": -54.41667
  },
  {
    "nombre": "Puerto Cazador",
    "provincia": "Misiones",
    "latitud": -27.16667,
    "longitud": -55.55
  },
  {
    "nombre": "Puerto Delicia",
    "provincia": "Misiones",
    "latitud": -26.2,
    "longitud": -54.58333
  },
  {
    "nombre": "Puerto Doce",
    "provincia": "Misiones",
    "latitud": -27.15,
    "longitud": -55.61667
  },
  {
    "nombre": "Puerto Eldorado",
    "provincia": "Misiones",
    "latitud": -26.38333,
    "longitud": -54.66667
  },
  {
    "nombre": "Puerto Errecaborde",
    "provincia": "Misiones",
    "latitud": -25.88333,
    "longitud": -54.6
  },
  {
    "nombre": "Puerto Espana",
    "provincia": "Misiones",
    "latitud": -27.05,
    "longitud": -55.45
  },
  {
    "nombre": "Puerto Esperanza",
    "provincia": "Misiones",
    "latitud": -26.01667,
    "longitud": -54.65
  },
  {
    "nombre": "Puerto Gisela",
    "provincia": "Misiones",
    "latitud": -27.01667,
    "longitud": -55.45
  },
  {
    "nombre": "Puerto Helvecia",
    "provincia": "Misiones",
    "latitud": -26.05,
    "longitud": -54.63333
  },
  {
    "nombre": "Puerto Iguazu",
    "provincia": "Misiones",
    "latitud": -25.59912,
    "longitud": -54.57355
  },
  {
    "nombre": "Puerto Ingeniero Morandi",
    "provincia": "Misiones",
    "latitud": -26.9,
    "longitud": -55.13333
  },
  {
    "nombre": "Puerto Irigoyen",
    "provincia": "Misiones",
    "latitud": -26.06667,
    "longitud": -54.61667
  },
  {
    "nombre": "Puerto Laharrague",
    "provincia": "Misiones",
    "latitud": -26.5,
    "longitud": -54.76667
  },
  {
    "nombre": "Puerto Leoni",
    "provincia": "Misiones",
    "latitud": -26.98333,
    "longitud": -55.16667
  },
  {
    "nombre": "Puerto Libertad",
    "provincia": "Misiones",
    "latitud": -25.91667,
    "longitud": -54.6
  },
  {
    "nombre": "Puerto Londero",
    "provincia": "Misiones",
    "latitud": -27.38333,
    "longitud": -54.43333
  },
  {
    "nombre": "Puerto Los Pinares",
    "provincia": "Misiones",
    "latitud": -26.41667,
    "longitud": -54.68333
  },
  {
    "nombre": "Puerto Mata Ojos",
    "provincia": "Misiones",
    "latitud": -27.41667,
    "longitud": -54.3
  },
  {
    "nombre": "Puerto Menocchio",
    "provincia": "Misiones",
    "latitud": -27.06667,
    "longitud": -55.45
  },
  {
    "nombre": "Puerto Mineral",
    "provincia": "Misiones",
    "latitud": -26.95,
    "longitud": -55.13333
  },
  {
    "nombre": "Puerto Naranjito",
    "provincia": "Misiones",
    "latitud": -26.95,
    "longitud": -55.3
  },
  {
    "nombre": "Puerto Oro Verde",
    "provincia": "Misiones",
    "latitud": -26.86667,
    "longitud": -55.13333
  },
  {
    "nombre": "Puerto Paranay",
    "provincia": "Misiones",
    "latitud": -26.68333,
    "longitud": -54.81667
  },
  {
    "nombre": "Puerto Paulito",
    "provincia": "Misiones",
    "latitud": -25.8,
    "longitud": -54.58333
  },
  {
    "nombre": "Puerto Piray",
    "provincia": "Misiones",
    "latitud": -26.46667,
    "longitud": -54.7
  },
  {
    "nombre": "Puerto Primero",
    "provincia": "Misiones",
    "latitud": -25.98333,
    "longitud": -54.61667
  },
  {
    "nombre": "Puerto Rico",
    "provincia": "Misiones",
    "latitud": -26.8,
    "longitud": -55.03333
  },
  {
    "nombre": "Puerto Rosario",
    "provincia": "Misiones",
    "latitud": -27.78333,
    "longitud": -55.01667
  },
  {
    "nombre": "Puerto San Antonio",
    "provincia": "Misiones",
    "latitud": -27.45,
    "longitud": -54.35
  },
  {
    "nombre": "Puerto San Isidro",
    "provincia": "Misiones",
    "latitud": -28.06667,
    "longitud": -55.41667
  },
  {
    "nombre": "Puerto San Lucas",
    "provincia": "Misiones",
    "latitud": -28.16667,
    "longitud": -55.58333
  },
  {
    "nombre": "Puerto Segundo",
    "provincia": "Misiones",
    "latitud": -25.98333,
    "longitud": -54.63333
  },
  {
    "nombre": "Puerto Tabay",
    "provincia": "Misiones",
    "latitud": -26.96667,
    "longitud": -55.26667
  },
  {
    "nombre": "Puerto Victoria",
    "provincia": "Misiones",
    "latitud": -26.33333,
    "longitud": -54.65
  },
  {
    "nombre": "Puerto Wanda",
    "provincia": "Misiones",
    "latitud": -25.96667,
    "longitud": -54.6
  },
  {
    "nombre": "Puerto Yacuy",
    "provincia": "Misiones",
    "latitud": -25.58333,
    "longitud": -54.25
  },
  {
    "nombre": "Ruiz de Montoya",
    "provincia": "Misiones",
    "latitud": -26.98333,
    "longitud": -55.05
  },
  {
    "nombre": "Salto",
    "provincia": "Misiones",
    "latitud": -27.5,
    "longitud": -55.2
  },
  {
    "nombre": "San Alberto",
    "provincia": "Misiones",
    "latitud": -26.8,
    "longitud": -54.98333
  },
  {
    "nombre": "San Francisco de Asis",
    "provincia": "Misiones",
    "latitud": -27.45,
    "longitud": -54.75
  },
  {
    "nombre": "San Ignacio Mini",
    "provincia": "Misiones",
    "latitud": -27.2553,
    "longitud": -55.5317
  },
  {
    "nombre": "San Juan de la Sierra",
    "provincia": "Misiones",
    "latitud": -27.78333,
    "longitud": -55.5
  },
  {
    "nombre": "Santa Maria",
    "provincia": "Misiones",
    "latitud": -27.91667,
    "longitud": -55.38333
  },
  {
    "nombre": "Santa Rita",
    "provincia": "Misiones",
    "latitud": -27.5,
    "longitud": -54.73333
  },
  {
    "nombre": "Santo Pipo",
    "provincia": "Misiones",
    "latitud": -27.13333,
    "longitud": -55.41667
  },
  {
    "nombre": "Tacuaruzu",
    "provincia": "Misiones",
    "latitud": -27.61667,
    "longitud": -55.63333
  },
  {
    "nombre": "Tobuna",
    "provincia": "Misiones",
    "latitud": -26.46667,
    "longitud": -53.9
  },
  {
    "nombre": "Tres Capones",
    "provincia": "Misiones",
    "latitud": -28.0,
    "longitud": -55.6
  },
  {
    "nombre": "Veinticinco de Mayo",
    "provincia": "Misiones",
    "latitud": -27.38333,
    "longitud": -54.76667
  },
  {
    "nombre": "Villa Dolores",
    "provincia": "Misiones",
    "latitud": -27.4,
    "longitud": -55.9
  },
  {
    "nombre": "Villa Guntz",
    "provincia": "Misiones",
    "latitud": -27.48333,
    "longitud": -55.1
  },
  {
    "nombre": "Villa Lonca",
    "provincia": "Misiones",
    "latitud": -27.46667,
    "longitud": -55.86667
  },
  {
    "nombre": "Villa Rural",
    "provincia": "Misiones",
    "latitud": -27.78333,
    "longitud": -55.23333
  },
  {
    "nombre": "Villa Svea",
    "provincia": "Misiones",
    "latitud": -27.48333,
    "longitud": -55.15
  },
  {
    "nombre": "Wanda",
    "provincia": "Misiones",
    "latitud": -25.96667,
    "longitud": -54.58333
  },
  {
    "nombre": "Yerbal Nuevo",
    "provincia": "Misiones",
    "latitud": -26.98333,
    "longitud": -54.48333
  },
  {
    "nombre": "Yerbal Viejo",
    "provincia": "Misiones",
    "latitud": -27.5,
    "longitud": -55.16667
  }
]