[
  {
    "nombre": "Aaron Castellanos",
    "provincia": "Santa Fe",
    "latitud": -34.31667,
    "longitud": -62.38333
  },
  {
    "nombre": "Acebal",
    "provincia": "Santa Fe",
    "latitud": -33.23333,
    "longitud": -60.83333
  },
  {
    "nombre": "Albarellos",
    "provincia": "Santa Fe",
    "latitud": -33.23333,
    "longitud": -60.63333
  },
  {
    "nombre": "Alberdi",
    "provincia": "Santa Fe",
    "latitud": -32.88333,
    "longitud": -60.7
  },
  {
    "nombre": "Alcorta",
    "provincia": "Santa Fe",
    "latitud": -33.53333,
    "longitud": -61.11667
  },
  {
    "nombre": "Aldao",
    "provincia": "Santa Fe",
    "latitud": -32.71667,
    "longitud": -60.81667
  },
  {
    "nombre": "Alejandra",
    "provincia": "Santa Fe",
    "latitud": -29.9,
    "longitud": -59.83333
  },
  {
    "nombre": "Alvarez",
    "provincia": "Santa Fe",
    "latitud": -33.13333,
    "longitud": -60.8
  },
  {
    "nombre": "Ambrosetti",
    "provincia": "Santa Fe",
    "latitud": -30.01667,
    "longitud": -61.58333
  },
  {
    "nombre": "Amenabar",
    "provincia": "Santa Fe",
    "latitud": -34.13333,
    "longitud": -62.4
  },
  {
    "nombre": "Andino",
    "provincia": "Santa Fe",
    "latitud": -32.66667,
    "longitud": -60.88333
  },
  {
    "nombre": "Angelica",
    "provincia": "Santa Fe",
    "latitud": -31.55,
    "longitud": -61.55
  },
  {
    "nombre": "Antonio Pini",
    "provincia": "Santa Fe",
    "latitud": -29.06667,
    "longitud": -61.73333
  },
  {
    "nombre": "Arequito",
    "provincia": "Santa Fe",
    "latitud": -33.15,
    "longitud": -61.46667
  },
  {
    "nombre": "Arminda",
    "provincia": "Santa Fe",
    "latitud": -33.26667,
    "longitud": -60.96667
  },
  {
    "nombre": "Armstrong",
    "provincia": "Santa Fe",
    "latitud": -32.78167,
    "longitud": -61.60778
  },
  {
    "nombre": "Arocena",
    "provincia": "Santa Fe",
    "latitud": -32.08333,
    "longitud": -60.96667
  },
  {
    "nombre": "Arroyito",
    "provincia": "Santa Fe",
    "latitud": -32.91667,
    "longitud": -60.68333
  },
  {
    "nombre": "Arrufo",
    "provincia": "Santa Fe",
    "latitud": -30.25,
    "longitud": -61.75
  },
  {
    "nombre": "Arteaga",
    "provincia": "Santa Fe",
    "latitud": -33.08333,
    "longitud": -61.8
  },
  {
    "nombre": "Ataliva",
    "provincia": "Santa Fe",
    "latitud": -30.98333,
    "longitud": -61.45
  },
  {
    "nombre": "Aurelia Norte",
    "provincia": "Santa Fe",
    "latitud": -31.36667,
    "longitud": -61.35
  },
  {
    "nombre": "Aurelia Sur",
    "provincia": "Santa Fe",
    "latitud": -31.41667,
    "longitud": -61.41667
  },
  {
    "nombre": "Avellaneda",
    "provincia": "Santa Fe",
    "latitud": -29.11667,
    "longitud": -59.66667
  },
  {
    "nombre": "Barrancas Viejo",
    "provincia": "Santa Fe",
    "latitud": -32.2,
    "longitud": -60.96667
  },
  {
    "nombre": "Barrio El Pozo SFE",
    "provincia": "Santa Fe",
    "latitud": -31.6367,
    "longitud": -60.65908
  },
  {
    "nombre": "Barrio Godoy",
    "provincia": "Santa Fe",
    "latitud": -32.96667,
    "longitud": -60.71667
  },
  {
    "nombre": "Bauer y Sigel",
    "provincia": "Santa Fe",
    "latitud": -31.26667,
    "longitud": -61.95
  },
  {
    "nombre": "Bella Italia",
    "provincia": "Santa Fe",
    "latitud": -31.27268,
    "longitud": -61.42396
  },
  {
    "nombre": "Berabevu",
    "provincia": "Santa Fe",
    "latitud": -33.33333,
    "longitud": -61.86667
  },
  {
    "nombre": "Berna",
    "provincia": "Santa Fe",
    "latitud": -29.26667,
    "longitud": -59.86667
  },
  {
    "nombre": "Berretta",
    "provincia": "Santa Fe",
    "latitud": -32.93333,
    "longitud": -61.28333
  },
  {
    "nombre": "Bigand",
    "provincia": "Santa Fe",
    "latitud": -33.38333,
    "longitud": -61.18333
  },
  {
    "nombre": "Bombal",
    "provincia": "Santa Fe",
    "latitud": -33.45,
    "longitud": -61.33333
  },
  {
    "nombre": "Bouquet",
    "provincia": "Santa Fe",
    "latitud": -32.41667,
    "longitud": -61.9
  },
  {
    "nombre": "Bustinza",
    "provincia": "Santa Fe",
    "latitud": -32.73333,
    "longitud": -61.3
  },
  {
    "nombre": "Cacique Ariacaiquin",
    "provincia": "Santa Fe",
    "latitud": -30.65,
    "longitud": -60.23333
  },
  {
    "nombre": "Calchaqui",
    "provincia": "Santa Fe",
    "latitud": -29.9,
    "longitud": -60.3
  },
  {
    "nombre": "Calzada",
    "provincia": "Santa Fe",
    "latitud": -32.96667,
    "longitud": -60.63333
  },
  {
    "nombre": "Campo Garay",
    "provincia": "Santa Fe",
    "latitud": -29.68333,
    "longitud": -61.61667
  },
  {
    "nombre": "Canada de Gomez",
    "provincia": "Santa Fe",
    "latitud": -32.81694,
    "longitud": -61.40083
  },
  {
    "nombre": "Canada del Ucle",
    "provincia": "Santa Fe",
    "latitud": -33.4,
    "longitud": -61.61667
  },
  {
    "nombre": "Canada Rosquin",
    "provincia": "Santa Fe",
    "latitud": -32.05,
    "longitud": -61.6
  },
  {
    "nombre": "Capitan Bermudez",
    "provincia": "Santa Fe",
    "latitud": -32.81667,
    "longitud": -60.71667
  },
  {
    "nombre": "Capivara",
    "provincia": "Santa Fe",
    "latitud": -30.45,
    "longitud": -61.26667
  },
  {
    "nombre": "Carcarana",
    "provincia": "Santa Fe",
    "latitud": -32.85,
    "longitud": -61.15
  },
  {
    "nombre": "Carlos Pellegrini",
    "provincia": "Santa Fe",
    "latitud": -32.05,
    "longitud": -61.8
  },
  {
    "nombre": "Carmen",
    "provincia": "Santa Fe",
    "latitud": -33.73333,
    "longitud": -61.76667
  },
  {
    "nombre": "Carmen del Sauce",
    "provincia": "Santa Fe",
    "latitud": -33.23333,
    "longitud": -60.81667
  },
  {
    "nombre": "Carreras",
    "provincia": "Santa Fe",
    "latitud": -33.6,
    "longitud": -61.31667
  },
  {
    "nombre": "Carrizales",
    "provincia": "Santa Fe",
    "latitud": -32.5,
    "longitud": -61.03333
  },
  {
    "nombre": "Casablanca",
    "provincia": "Santa Fe",
    "latitud": -30.96667,
    "longitud": -61.75
  },
  {
    "nombre": "Casalegno",
    "provincia": "Santa Fe",
    "latitud": -32.26667,
    "longitud": -61.13333
  },
  {
    "nombre": "Casas",
    "provincia": "Santa Fe",
    "latitud": -32.13333,
    "longitud": -61.55
  },
  {
    "nombre": "Casilda",
    "provincia": "Santa Fe",
    "latitud": -33.04417,
    "longitud": -61.16806
  },
  {
    "nombre": "Cavour",
    "provincia": "Santa Fe",
    "latitud": -31.38333,
    "longitud": -61.01667
  },
  {
    "nombre": "Cayasta",
    "provincia": "Santa Fe",
    "latitud": -31.2,
    "longitud": -60.16667
  },
  {
    "nombre": "Cayastacito",
    "provincia": "Santa Fe",
    "latitud": -31.1,
    "longitud": -60.56667
  },
  {
    "nombre": "Centeno",
    "provincia": "Santa Fe",
    "latitud": -32.3,
    "longitud": -61.41667
  },
  {
    "nombre": "Cepeda",
    "provincia": "Santa Fe",
    "latitud": -33.4,
    "longitud": -60.61667
  },
  {
    "nombre": "Ceres",
    "provincia": "Santa Fe",
    "latitud": -29.88333,
    "longitud": -61.95
  },
  {
    "nombre": "Cerritos",
    "provincia": "Santa Fe",
    "latitud": -29.3,
    "longitud": -60.33333
  },
  {
    "nombre": "Chabas",
    "provincia": "Santa Fe",
    "latitud": -33.25,
    "longitud": -61.36667
  },
  {
    "nombre": "Chapuy",
    "provincia": "Santa Fe",
    "latitud": -33.8,
    "longitud": -61.75
  },
  {
    "nombre": "Chateaubriand",
    "provincia": "Santa Fe",
    "latitud": -33.63333,
    "longitud": -61.86667
  },
  {
    "nombre": "Chovet",
    "provincia": "Santa Fe",
    "latitud": -33.6,
    "longitud": -61.6
  },
  {
    "nombre": "Christophersen",
    "provincia": "Santa Fe",
    "latitud": -34.16667,
    "longitud": -62.05
  },
  {
    "nombre": "Clason",
    "provincia": "Santa Fe",
    "latitud": -32.46667,
    "longitud": -61.28333
  },
  {
    "nombre": "Clucellas",
    "provincia": "Santa Fe",
    "latitud": -31.43333,
    "longitud": -61.68333
  },
  {
    "nombre": "Colastine",
    "provincia": "Santa Fe",
    "latitud": -31.61667,
    "longitud": -60.6
  },
  {
    "nombre": "Colastine Sur",
    "provincia": "Santa Fe",
    "latitud": -31.68333,
    "longitud": -60.63333
  },
  {
    "nombre": "Colmena",
    "provincia": "Santa Fe",
    "latitud": -28.75,
    "longitud": -60.1
  },
  {
    "nombre": "Colonia Aldao",
    "provincia": "Santa Fe",
    "latitud": -30.98333,
    "longitud": -61.75
  },
  {
    "nombre": "Colonia Ana",
    "provincia": "Santa Fe",
    "latitud": -30.15,
    "longitud": -61.9
  },
  {
    "nombre": "Colonia Bicha",
    "provincia": "Santa Fe",
    "latitud": -30.85,
    "longitud": -61.85
  },
  {
    "nombre": "Colonia Bossi",
    "provincia": "Santa Fe",
    "latitud": -30.66667,
    "longitud": -61.78333
  },
  {
    "nombre": "Colonia Campo del Medio",
    "provincia": "Santa Fe",
    "latitud": -31.13333,
    "longitud": -60.11667
  },
  {
    "nombre": "Colonia Castelar",
    "provincia": "Santa Fe",
    "latitud": -31.58333,
    "longitud": -62.06667
  },
  {
    "nombre": "Colonia Cello",
    "provincia": "Santa Fe",
    "latitud": -31.43333,
    "longitud": -61.85
  },
  {
    "nombre": "Colonia Diez de Julio",
    "provincia": "Santa Fe",
    "latitud": -30.55,
    "longitud": -62.11667
  },
  {
    "nombre": "Colonia El Cisne",
    "provincia": "Santa Fe",
    "latitud": -31.0,
    "longitud": -61.6
  },
  {
    "nombre": "Colonia El Toba",
    "provincia": "Santa Fe",
    "latitud": -29.65,
    "longitud": -59.96667
  },
  {
    "nombre": "Colonia Hugentobler",
    "provincia": "Santa Fe",
    "latitud": -30.91667,
    "longitud": -61.8
  },
  {
    "nombre": "Colonia La Brava",
    "provincia": "Santa Fe",
    "latitud": -30.46667,
    "longitud": -60.16667
  },
  {
    "nombre": "Colonia La Camila",
    "provincia": "Santa Fe",
    "latitud": -30.06667,
    "longitud": -60.48333
  },
  {
    "nombre": "Colonia La Clara",
    "provincia": "Santa Fe",
    "latitud": -30.53333,
    "longitud": -61.03333
  },
  {
    "nombre": "Colonia Margarita",
    "provincia": "Santa Fe",
    "latitud": -31.7,
    "longitud": -61.65
  },
  {
    "nombre": "Colonia Mascias",
    "provincia": "Santa Fe",
    "latitud": -30.8,
    "longitud": -60.01667
  },
  {
    "nombre": "Colonia Matilde",
    "provincia": "Santa Fe",
    "latitud": -31.81667,
    "longitud": -61.0
  },
  {
    "nombre": "Colonia Maua",
    "provincia": "Santa Fe",
    "latitud": -30.76667,
    "longitud": -61.26667
  },
  {
    "nombre": "Colonia Medici",
    "provincia": "Santa Fe",
    "latitud": -32.63333,
    "longitud": -61.36667
  },
  {
    "nombre": "Colonia Montefiore",
    "provincia": "Santa Fe",
    "latitud": -29.66667,
    "longitud": -61.86667
  },
  {
    "nombre": "Colonia Portugalete",
    "provincia": "Santa Fe",
    "latitud": -30.26667,
    "longitud": -61.36667
  },
  {
    "nombre": "Colonia Rosa",
    "provincia": "Santa Fe",
    "latitud": -30.3,
    "longitud": -61.98333
  },
  {
    "nombre": "Colonia Silva",
    "provincia": "Santa Fe",
    "latitud": -30.45,
    "longitud": -60.43333
  },
  {
    "nombre": "Colonia Tacurales",
    "provincia": "Santa Fe",
    "latitud": -30.81667,
    "longitud": -61.75
  },
  {
    "nombre": "Constanza",
    "provincia": "Santa Fe",
    "latitud": -30.66667,
    "longitud": -61.33333
  },
  {
    "nombre": "Constituyentes",
    "provincia": "Santa Fe",
    "latitud": -31.36667,
    "longitud": -60.66667
  },
  {
    "nombre": "Coronda",
    "provincia": "Santa Fe",
    "latitud": -31.96667,
    "longitud": -60.91667
  },
  {
    "nombre": "Coronel Arnold",
    "provincia": "Santa Fe",
    "latitud": -33.1,
    "longitud": -60.96667
  },
  {
    "nombre": "Coronel Bogado",
    "provincia": "Santa Fe",
    "latitud": -33.31667,
    "longitud": -60.6
  },
  {
    "nombre": "Coronel Fraga",
    "provincia": "Santa Fe",
    "latitud": -31.16667,
    "longitud": -61.9
  },
  {
    "nombre": "Coronel Rodolfo S Dominguez",
    "provincia": "Santa Fe",
    "latitud": -33.18333,
    "longitud": -60.71667
  },
  {
    "nombre": "Coronel Rodriguez",
    "provincia": "Santa Fe",
    "latitud": -31.7,
    "longitud": -61.25
  },
  {
    "nombre": "Coronel Rosetti",
    "provincia": "Santa Fe",
    "latitud": -34.28333,
    "longitud": -62.56667
  },
  {
    "nombre": "Correa",
    "provincia": "Santa Fe",
    "latitud": -32.85,
    "longitud": -61.25
  },
  {
    "nombre": "Crispi",
    "provincia": "Santa Fe",
    "latitud": -31.73333,
    "longitud": -62.05
  },
  {
    "nombre": "Cuatro de Febrero",
    "provincia": "Santa Fe",
    "latitud": -33.8,
    "longitud": -61.58333
  },
  {
    "nombre": "Cululu",
    "provincia": "Santa Fe",
    "latitud": -31.2,
    "longitud": -60.93333
  },
  {
    "nombre": "Curupaity",
    "provincia": "Santa Fe",
    "latitud": -30.4,
    "longitud": -61.66667
  },
  {
    "nombre": "Departamento de Caseros",
    "provincia": "Santa Fe",
    "latitud": -33.25,
    "longitud": -61.66667
  },
  {
    "nombre": "Departamento de Castellanos",
    "provincia": "Santa Fe",
    "latitud": -31.16667,
    "longitud": -61.66667
  },
  {
    "nombre": "Departamento de Constitucion",
    "provincia": "Santa Fe",
    "latitud": -33.5,
    "longitud": -60.91667
  },
  {
    "nombre": "Departamento de Garay",
    "provincia": "Santa Fe",
    "latitud": -31.0,
    "longitud": -60.08333
  },
  {
    "nombre": "Departamento de General Lopez",
    "provincia": "Santa Fe",
    "latitud": -33.83333,
    "longitud": -61.83333
  },
  {
    "nombre": "Departamento de General Obligado",
    "provincia": "Santa Fe",
    "latitud": -28.75,
    "longitud": -59.75
  },
  {
    "nombre": "Departamento de Iriondo",
    "provincia": "Santa Fe",
    "latitud": -32.63333,
    "longitud": -61.33333
  },
  {
    "nombre": "Departamento de Las Colonias",
    "provincia": "Santa Fe",
    "latitud": -31.5,
    "longitud": -61.13333
  },
  {
    "nombre": "Departamento de Rosario",
    "provincia": "Santa Fe",
    "latitud": -33.16667,
    "longitud": -60.75
  },
  {
    "nombre": "Departamento de San Cristobal",
    "provincia": "Santa Fe",
    "latitud": -30.33333,
    "longitud": -61.33333
  },
  {
    "nombre": "Departamento de San Javier",
    "provincia": "Santa Fe",
    "latitud": -30.33333,
    "longitud": -59.91667
  },
  {
    "nombre": "Departamento de San Jeronimo",
    "provincia": "Santa Fe",
    "latitud": -32.16667,
    "longitud": -61.08333
  },
  {
    "nombre": "Departamento de San Lorenzo",
    "provincia": "Santa Fe",
    "latitud": -33.0,
    "longitud": -61.0
  },
  {
    "nombre": "Departamento de Vera",
    "provincia": "Santa Fe",
    "latitud": -29.0,
    "longitud": -60.5
  },
  {
    "nombre": "Desmochado Afuera",
    "provincia": "Santa Fe",
    "latitud": -33.0,
    "longitud": -61.26667
  },
  {
    "nombre": "Desvio Kilometro 366",
    "provincia": "Santa Fe",
    "latitud": -28.43333,
    "longitud": -60.0
  },
  {
    "nombre": "Diaz",
    "provincia": "Santa Fe",
    "latitud": -32.36667,
    "longitud": -61.08333
  },
  {
    "nombre": "Diego de Alvear",
    "provincia": "Santa Fe",
    "latitud": -34.36667,
    "longitud": -62.15
  },
  {
    "nombre": "Durham",
    "provincia": "Santa Fe",
    "latitud": -33.55,
    "longitud": -61.48333
  },
  {
    "nombre": "Egusquiza",
    "provincia": "Santa Fe",
    "latitud": -31.1,
    "longitud": -61.65
  },
  {
    "nombre": "El Cantor",
    "provincia": "Santa Fe",
    "latitud": -33.51667,
    "longitud": -62.15
  },
  {
    "nombre": "El Jardin",
    "provincia": "Santa Fe",
    "latitud": -33.7,
    "longitud": -61.68333
  },
  {
    "nombre": "El Laurel",
    "provincia": "Santa Fe",
    "latitud": -30.96667,
    "longitud": -60.06667
  },
  {
    "nombre": "El Piquete",
    "provincia": "Santa Fe",
    "latitud": -31.56667,
    "longitud": -60.71667
  },
  {
    "nombre": "El Rabon",
    "provincia": "Santa Fe",
    "latitud": -28.2,
    "longitud": -59.28333
  },
  {
    "nombre": "El Sombrerito",
    "provincia": "Santa Fe",
    "latitud": -28.63333,
    "longitud": -59.46667
  },
  {
    "nombre": "Elisa",
    "provincia": "Santa Fe",
    "latitud": -30.68333,
    "longitud": -61.05
  },
  {
    "nombre": "Elortondo",
    "provincia": "Santa Fe",
    "latitud": -33.7,
    "longitud": -61.61667
  },
  {
    "nombre": "Empalme Villa Constitucion",
    "provincia": "Santa Fe",
    "latitud": -33.26667,
    "longitud": -60.38333
  },
  {
    "nombre": "Ensanche de Colonia Ella",
    "provincia": "Santa Fe",
    "latitud": -29.3,
    "longitud": -59.98333
  },
  {
    "nombre": "Esmeralda",
    "provincia": "Santa Fe",
    "latitud": -31.61667,
    "longitud": -61.91667
  },
  {
    "nombre": "Espin",
    "provincia": "Santa Fe",
    "latitud": -29.53333,
    "longitud": -60.23333
  },
  {
    "nombre": "Estacion Clara",
    "provincia": "Santa Fe",
    "latitud": -30.55,
    "longitud": -61.18333
  },
  {
    "nombre": "Estacion Matilde",
    "provincia": "Santa Fe",
    "latitud": -31.8,
    "longitud": -60.98333
  },
  {
    "nombre": "Esteban Rams",
    "provincia": "Santa Fe",
    "latitud": -29.78333,
    "longitud": -61.48333
  },
  {
    "nombre": "Eusebia",
    "provincia": "Santa Fe",
    "latitud": -30.95,
    "longitud": -61.85
  },
  {
    "nombre": "Eustolia",
    "provincia": "Santa Fe",
    "latitud": -31.58333,
    "longitud": -61.76667
  },
  {
    "nombre": "Fassi",
    "provincia": "Santa Fe",
    "latitud": -31.13333,
    "longitud": -61.61667
  },
  {
    "nombre": "Felicia",
    "provincia": "Santa Fe",
    "latitud": -31.25,
    "longitud": -61.21667
  },
  {
    "nombre": "Fighiera",
    "provincia": "Santa Fe",
    "latitud": -33.2,
    "longitud": -60.46667
  },
  {
    "nombre": "Firmat",
    "provincia": "Santa Fe",
    "latitud": -33.45,
    "longitud": -61.48333
  },
  {
    "nombre": "Flor de Oro",
    "provincia": "Santa Fe",
    "latitud": -28.91667,
    "longitud": -59.68333
  },
  {
    "nombre": "Florencia",
    "provincia": "Santa Fe",
    "latitud": -28.03333,
    "longitud": -59.25
  },
  {
    "nombre": "Fortin Atahualpa",
    "provincia": "Santa Fe",
    "latitud": -28.78333,
    "longitud": -61.68333
  },
  {
    "nombre": "Francisco Paz",
    "provincia": "Santa Fe",
    "latitud": -33.4,
    "longitud": -60.86667
  },
  {
    "nombre": "Franck",
    "provincia": "Santa Fe",
    "latitud": -31.58333,
    "longitud": -60.93333
  },
  {
    "nombre": "Fray Luis A Beltran",
    "provincia": "Santa Fe",
    "latitud": -32.78333,
    "longitud": -60.73333
  },
  {
    "nombre": "Fredriksson",
    "provincia": "Santa Fe",
    "latitud": -33.45,
    "longitud": -61.46667
  },
  {
    "nombre": "Froilan Palacios",
    "provincia": "Santa Fe",
    "latitud": -32.66667,
    "longitud": -61.1
  },
  {
    "nombre": "Fuentes",
    "provincia": "Santa Fe",
    "latitud": -33.16667,
    "longitud": -61.08333
  },
  {
    "nombre": "Funes",
    "provincia": "Santa Fe",
    "latitud": -32.91667,
    "longitud": -60.81667
  },
  {
    "nombre": "Gaboto",
    "provincia": "Santa Fe",
    "latitud": -32.43333,
    "longitud": -60.81667
  },
  {
    "nombre": "Galisteo",
    "provincia": "Santa Fe",
    "latitud": -31.03333,
    "longitud": -61.36667
  },
  {
    "nombre": "Galvez",
    "provincia": "Santa Fe",
    "latitud": -32.02833,
    "longitud": -61.22222
  },
  {
    "nombre": "Garabato",
    "provincia": "Santa Fe",
    "latitud": -28.93333,
    "longitud": -60.15
  },
  {
    "nombre": "Garibaldi",
    "provincia": "Santa Fe",
    "latitud": -31.65,
    "longitud": -61.81667
  },
  {
    "nombre": "General Gelly",
    "provincia": "Santa Fe",
    "latitud": -33.6,
    "longitud": -60.6
  },
  {
    "nombre": "General Lagos",
    "provincia": "Santa Fe",
    "latitud": -33.1,
    "longitud": -60.56667
  },
  {
    "nombre": "Gessler",
    "provincia": "Santa Fe",
    "latitud": -31.88333,
    "longitud": -61.13333
  },
  {
    "nombre": "Gobernador Candioti",
    "provincia": "Santa Fe",
    "latitud": -31.4,
    "longitud": -60.75
  },
  {
    "nombre": "Gobernador Crespo",
    "provincia": "Santa Fe",
    "latitud": -30.38333,
    "longitud": -60.41667
  },
  {
    "nombre": "Gobernador Galvez",
    "provincia": "Santa Fe",
    "latitud": -33.03333,
    "longitud": -60.63333
  },
  {
    "nombre": "Godeken",
    "provincia": "Santa Fe",
    "latitud": -33.38333,
    "longitud": -61.85
  },
  {
    "nombre": "Golondrina",
    "provincia": "Santa Fe",
    "latitud": -28.55,
    "longitud": -60.05
  },
  {
    "nombre": "Granadero Baigorria",
    "provincia": "Santa Fe",
    "latitud": -32.86667,
    "longitud": -60.7
  },
  {
    "nombre": "Gregoria Perez de Denis",
    "provincia": "Santa Fe",
    "latitud": -28.23333,
    "longitud": -61.53333
  },
  {
    "nombre": "Grutly Norte",
    "provincia": "Santa Fe",
    "latitud": -31.21667,
    "longitud": -61.1
  },
  {
    "nombre": "Grutly Sur",
    "provincia": "Santa Fe",
    "latitud": -31.26667,
    "longitud": -61.05
  },
  {
    "nombre": "Guadalupe Norte",
    "provincia": "Santa Fe",
    "latitud": -28.93333,
    "longitud": -59.56667
  },
  {
    "nombre": "Guasuncho",
    "provincia": "Santa Fe",
    "latitud": -28.31667,
    "longitud": -59.63333
  },
  {
    "nombre": "Guaycuru",
    "provincia": "Santa Fe",
    "latitud": -29.11667,
    "longitud": -60.15
  },
  {
    "nombre": "Guayquiraro",
    "provincia": "Santa Fe",
    "latitud": -30.3,
    "longitud": -59.53333
  },
  {
    "nombre": "Hansen",
    "provincia": "Santa Fe",
    "latitud": -33.26667,
    "longitud": -61.7
  },
  {
    "nombre": "Helvecia",
    "provincia": "Santa Fe",
    "latitud": -31.1,
    "longitud": -60.08333
  },
  {
    "nombre": "Hersilia",
    "provincia": "Santa Fe",
    "latitud": -30.0,
    "longitud": -61.85
  },
  {
    "nombre": "Hipatia",
    "provincia": "Santa Fe",
    "latitud": -31.13333,
    "longitud": -61.03333
  },
  {
    "nombre": "Huanqueros",
    "provincia": "Santa Fe",
    "latitud": -30.01667,
    "longitud": -61.23333
  },
  {
    "nombre": "Hughes",
    "provincia": "Santa Fe",
    "latitud": -33.8,
    "longitud": -61.33333
  },
  {
    "nombre": "Humberto Primero",
    "provincia": "Santa Fe",
    "latitud": -33.03333,
    "longitud": -61.03333
  },
  {
    "nombre": "Hume",
    "provincia": "Santa Fe",
    "latitud": -33.01667,
    "longitud": -60.68333
  },
  {
    "nombre": "Ibarlucea",
    "provincia": "Santa Fe",
    "latitud": -32.85,
    "longitud": -60.8
  },
  {
    "nombre": "Independencia",
    "provincia": "Santa Fe",
    "latitud": -29.36667,
    "longitud": -61.73333
  },
  {
    "nombre": "Ingeniero Chanourdie",
    "provincia": "Santa Fe",
    "latitud": -28.75,
    "longitud": -59.58333
  },
  {
    "nombre": "Intiyaco",
    "provincia": "Santa Fe",
    "latitud": -28.65,
    "longitud": -60.08333
  },
  {
    "nombre": "Irigoyen",
    "provincia": "Santa Fe",
    "latitud": -32.15,
    "longitud": -61.1
  },
  {
    "nombre": "Iriondo",
    "provincia": "Santa Fe",
    "latitud": -31.31667,
    "longitud": -60.75
  },
  {
    "nombre": "Iturraspe",
    "provincia": "Santa Fe",
    "latitud": -32.43333,
    "longitud": -61.78333
  },
  {
    "nombre": "Jacinto L Arauz",
    "provincia": "Santa Fe",
    "latitud": -30.73333,
    "longitud": -60.96667
  },
  {
    "nombre": "Jesus Maria",
    "provincia": "Santa Fe",
    "latitud": -32.66667,
    "longitud": -60.8
  },
  {
    "nombre": "Josefina",
    "provincia": "Santa Fe",
    "latitud": -31.4,
    "longitud": -61.98333
  },
  {
    "nombre": "Juan Bernabe Molina",
    "provincia": "Santa Fe",
    "latitud": -33.48333,
    "longitud": -60.5
  },
  {
    "nombre": "Juncal",
    "provincia": "Santa Fe",
    "latitud": -33.71667,
    "longitud": -61.05
  },
  {
    "nombre": "La Blanca Central",
    "provincia": "Santa Fe",
    "latitud": -30.2,
    "longitud": -60.48333
  },
  {
    "nombre": "La Cabral",
    "provincia": "Santa Fe",
    "latitud": -30.08333,
    "longitud": -61.16667
  },
  {
    "nombre": "La California",
    "provincia": "Santa Fe",
    "latitud": -32.55,
    "longitud": -61.55
  },
  {
    "nombre": "La Chispa",
    "provincia": "Santa Fe",
    "latitud": -33.55,
    "longitud": -61.98333
  },
  {
    "nombre": "La Flor",
    "provincia": "Santa Fe",
    "latitud": -33.28333,
    "longitud": -61.66667
  },
  {
    "nombre": "La Gallareta",
    "provincia": "Santa Fe",
    "latitud": -29.56667,
    "longitud": -60.38333
  },
  {
    "nombre": "La Guardia",
    "provincia": "Santa Fe",
    "latitud": -31.63333,
    "longitud": -60.61667
  },
  {
    "nombre": "La Pelada",
    "provincia": "Santa Fe",
    "latitud": -30.86667,
    "longitud": -60.98333
  },
  {
    "nombre": "La Penca y Caraguata",
    "provincia": "Santa Fe",
    "latitud": -30.33333,
    "longitud": -60.56667
  },
  {
    "nombre": "La Picasa",
    "provincia": "Santa Fe",
    "latitud": -34.35,
    "longitud": -62.26667
  },
  {
    "nombre": "La Reserva",
    "provincia": "Santa Fe",
    "latitud": -28.48333,
    "longitud": -59.51667
  },
  {
    "nombre": "La Rubia",
    "provincia": "Santa Fe",
    "latitud": -30.1,
    "longitud": -61.8
  },
  {
    "nombre": "La Sarnosa",
    "provincia": "Santa Fe",
    "latitud": -29.23333,
    "longitud": -60.41667
  },
  {
    "nombre": "La Zulema",
    "provincia": "Santa Fe",
    "latitud": -29.1,
    "longitud": -60.11667
  },
  {
    "nombre": "Labordeboy",
    "provincia": "Santa Fe",
    "latitud": -33.71667,
    "longitud": -61.33333
  },
  {
    "nombre": "Landeta",
    "provincia": "Santa Fe",
    "latitud": -32.01667,
    "longitud": -62.06667
  },
  {
    "nombre": "Lanteri",
    "provincia": "Santa Fe",
    "latitud": -28.83333,
    "longitud": -59.65
  },
  {
    "nombre": "Larguia",
    "provincia": "Santa Fe",
    "latitud": -32.56667,
    "longitud": -61.21667
  },
  {
    "nombre": "Larrechea",
    "provincia": "Santa Fe",
    "latitud": -31.93333,
    "longitud": -61.05
  },
  {
    "nombre": "Las Avispas",
    "provincia": "Santa Fe",
    "latitud": -29.88333,
    "longitud": -61.3
  },
  {
    "nombre": "Las Canas",
    "provincia": "Santa Fe",
    "latitud": -31.01667,
    "longitud": -60.3
  },
  {
    "nombre": "Las Palmeras",
    "provincia": "Santa Fe",
    "latitud": -30.63333,
    "longitud": -61.65
  },
  {
    "nombre": "Las Parejas",
    "provincia": "Santa Fe",
    "latitud": -32.68333,
    "longitud": -61.53333
  },
  {
    "nombre": "Las Rosas",
    "provincia": "Santa Fe",
    "latitud": -32.47694,
    "longitud": -61.58611
  },
  {
    "nombre": "Las Toscas",
    "provincia": "Santa Fe",
    "latitud": -28.35,
    "longitud": -59.28333
  },
  {
    "nombre": "Lehmann",
    "provincia": "Santa Fe",
    "latitud": -31.13333,
    "longitud": -61.45
  },
  {
    "nombre": "Llambi Campbell",
    "provincia": "Santa Fe",
    "latitud": -31.18307,
    "longitud": -60.75167
  },
  {
    "nombre": "Logrono",
    "provincia": "Santa Fe",
    "latitud": -29.5,
    "longitud": -61.7
  },
  {
    "nombre": "Los Amores",
    "provincia": "Santa Fe",
    "latitud": -28.1,
    "longitud": -59.98333
  },
  {
    "nombre": "Los Muchachos",
    "provincia": "Santa Fe",
    "latitud": -33.08333,
    "longitud": -60.73333
  },
  {
    "nombre": "Los Nogales",
    "provincia": "Santa Fe",
    "latitud": -33.11667,
    "longitud": -61.61667
  },
  {
    "nombre": "Los Quirquinchos",
    "provincia": "Santa Fe",
    "latitud": -33.36667,
    "longitud": -61.71667
  },
  {
    "nombre": "Los Rosas",
    "provincia": "Santa Fe",
    "latitud": -32.47694,
    "longitud": -61.58611
  },
  {
    "nombre": "Los Sembrados",
    "provincia": "Santa Fe",
    "latitud": -31.66667,
    "longitud": -61.56667
  },
  {
    "nombre": "Lucio V Lopez",
    "provincia": "Santa Fe",
    "latitud": -32.71667,
    "longitud": -61.03333
  },
  {
    "nombre": "Luis Palacios",
    "provincia": "Santa Fe",
    "latitud": -32.78333,
    "longitud": -60.9
  },
  {
    "nombre": "Maciel",
    "provincia": "Santa Fe",
    "latitud": -32.46667,
    "longitud": -60.88333
  },
  {
    "nombre": "Maggiolo",
    "provincia": "Santa Fe",
    "latitud": -33.73333,
    "longitud": -62.26667
  },
  {
    "nombre": "Maizales",
    "provincia": "Santa Fe",
    "latitud": -33.31667,
    "longitud": -60.96667
  },
  {
    "nombre": "Malabrigo",
    "provincia": "Santa Fe",
    "latitud": -29.35,
    "longitud": -59.98333
  },
  {
    "nombre": "Maltide",
    "provincia": "Santa Fe",
    "latitud": -31.8,
    "longitud": -61.0
  },
  {
    "nombre": "Mangore",
    "provincia": "Santa Fe",
    "latitud": -31.63333,
    "longitud": -61.68333
  },
  {
    "nombre": "Manucho",
    "provincia": "Santa Fe",
    "latitud": -31.26667,
    "longitud": -60.8
  },
  {
    "nombre": "Marcelino Escalada",
    "provincia": "Santa Fe",
    "latitud": -30.58333,
    "longitud": -60.48333
  },
  {
    "nombre": "Margarita",
    "provincia": "Santa Fe",
    "latitud": -29.68333,
    "longitud": -60.25
  },
  {
    "nombre": "Maria Eugenia",
    "provincia": "Santa Fe",
    "latitud": -30.5,
    "longitud": -60.88333
  },
  {
    "nombre": "Maria Juana",
    "provincia": "Santa Fe",
    "latitud": -31.68333,
    "longitud": -61.73333
  },
  {
    "nombre": "Maria Susana",
    "provincia": "Santa Fe",
    "latitud": -32.26,
    "longitud": -61.92222
  },
  {
    "nombre": "Maria Teresa",
    "provincia": "Santa Fe",
    "latitud": -34.01667,
    "longitud": -61.9
  },
  {
    "nombre": "Mariano Saavedra",
    "provincia": "Santa Fe",
    "latitud": -31.66667,
    "longitud": -61.35
  },
  {
    "nombre": "Matilde",
    "provincia": "Santa Fe",
    "latitud": -31.8,
    "longitud": -60.98333
  },
  {
    "nombre": "Melincue",
    "provincia": "Santa Fe",
    "latitud": -33.65,
    "longitud": -61.45
  },
  {
    "nombre": "Merceditas",
    "provincia": "Santa Fe",
    "latitud": -33.95,
    "longitud": -61.33333
  },
  {
    "nombre": "Miguel Torres",
    "provincia": "Santa Fe",
    "latitud": -33.53333,
    "longitud": -61.46667
  },
  {
    "nombre": "Mocovi",
    "provincia": "Santa Fe",
    "latitud": -28.4,
    "longitud": -59.7
  },
  {
    "nombre": "Moises Ville",
    "provincia": "Santa Fe",
    "latitud": -30.71667,
    "longitud": -61.48333
  },
  {
    "nombre": "Monigotes",
    "provincia": "Santa Fe",
    "latitud": -30.5,
    "longitud": -61.65
  },
  {
    "nombre": "Monje",
    "provincia": "Santa Fe",
    "latitud": -32.35,
    "longitud": -60.93333
  },
  {
    "nombre": "Monte Flores",
    "provincia": "Santa Fe",
    "latitud": -33.1,
    "longitud": -60.68333
  },
  {
    "nombre": "Monte Vera",
    "provincia": "Santa Fe",
    "latitud": -31.51667,
    "longitud": -60.66667
  },
  {
    "nombre": "Moussy",
    "provincia": "Santa Fe",
    "latitud": -29.01667,
    "longitud": -59.7
  },
  {
    "nombre": "Nanducita",
    "provincia": "Santa Fe",
    "latitud": -30.36667,
    "longitud": -61.15
  },
  {
    "nombre": "Nare",
    "provincia": "Santa Fe",
    "latitud": -30.96667,
    "longitud": -60.46667
  },
  {
    "nombre": "Nelson",
    "provincia": "Santa Fe",
    "latitud": -31.26667,
    "longitud": -60.75
  },
  {
    "nombre": "Nicanor E Molinas",
    "provincia": "Santa Fe",
    "latitud": -29.15,
    "longitud": -59.85
  },
  {
    "nombre": "Nueva Italia",
    "provincia": "Santa Fe",
    "latitud": -29.81667,
    "longitud": -61.41667
  },
  {
    "nombre": "Nueva Lehmann",
    "provincia": "Santa Fe",
    "latitud": -31.11667,
    "longitud": -61.51667
  },
  {
    "nombre": "Nuevo Alberdi",
    "provincia": "Santa Fe",
    "latitud": -32.88333,
    "longitud": -60.73333
  },
  {
    "nombre": "Nuevo Torino",
    "provincia": "Santa Fe",
    "latitud": -31.35,
    "longitud": -61.23333
  },
  {
    "nombre": "Ogilvie",
    "provincia": "Santa Fe",
    "latitud": -29.35,
    "longitud": -60.2
  },
  {
    "nombre": "Oliveros",
    "provincia": "Santa Fe",
    "latitud": -32.56667,
    "longitud": -60.85
  },
  {
    "nombre": "Oratorio Morante",
    "provincia": "Santa Fe",
    "latitud": -33.41667,
    "longitud": -60.4
  },
  {
    "nombre": "Orono",
    "provincia": "Santa Fe",
    "latitud": -31.91667,
    "longitud": -61.1
  },
  {
    "nombre": "Paikin",
    "provincia": "Santa Fe",
    "latitud": -30.9,
    "longitud": -60.38333
  },
  {
    "nombre": "Palacios",
    "provincia": "Santa Fe",
    "latitud": -30.71667,
    "longitud": -61.61667
  },
  {
    "nombre": "Paraje La Fronterita",
    "provincia": "Santa Fe",
    "latitud": -31.2,
    "longitud": -61.46667
  },
  {
    "nombre": "Pavon Arriba",
    "provincia": "Santa Fe",
    "latitud": -33.31667,
    "longitud": -60.83333
  },
  {
    "nombre": "Pedro Gomez Cello",
    "provincia": "Santa Fe",
    "latitud": -30.03333,
    "longitud": -60.3
  },
  {
    "nombre": "Perez",
    "provincia": "Santa Fe",
    "latitud": -33.0,
    "longitud": -60.76667
  },
  {
    "nombre": "Petronila",
    "provincia": "Santa Fe",
    "latitud": -30.65,
    "longitud": -60.66667
  },
  {
    "nombre": "Piamonte",
    "provincia": "Santa Fe",
    "latitud": -32.13333,
    "longitud": -61.98333
  },
  {
    "nombre": "Piloto Avila",
    "provincia": "Santa Fe",
    "latitud": -30.73333,
    "longitud": -59.56667
  },
  {
    "nombre": "Pozo Borrado",
    "provincia": "Santa Fe",
    "latitud": -28.93333,
    "longitud": -61.68333
  },
  {
    "nombre": "Presidente Roca",
    "provincia": "Santa Fe",
    "latitud": -31.21667,
    "longitud": -61.61667
  },
  {
    "nombre": "Progresso",
    "provincia": "Santa Fe",
    "latitud": -31.13333,
    "longitud": -60.98333
  },
  {
    "nombre": "Providencia",
    "provincia": "Santa Fe",
    "latitud": -30.98333,
    "longitud": -61.01667
  },
  {
    "nombre": "Provincia de Santa Fe",
    "provincia": "Santa Fe",
    "latitud": -31.0,
    "longitud": -61.0
  },
  {
    "nombre": "Pueblo Elisa",
    "provincia": "Santa Fe",
    "latitud": -32.68333,
    "longitud": -61.51667
  },
  {
    "nombre": "Pueblo Marini",
    "provincia": "Santa Fe",
    "latitud": -31.05,
    "longitud": -61.88333
  },
  {
    "nombre": "Pueblo Munoz",
    "provincia": "Santa Fe",
    "latitud": -33.16667,
    "longitud": -60.9
  },
  {
    "nombre": "Pueblo Terragni",
    "provincia": "Santa Fe",
    "latitud": -31.15,
    "longitud": -61.73333
  },
  {
    "nombre": "Puerto Aragon",
    "provincia": "Santa Fe",
    "latitud": -32.25,
    "longitud": -60.91667
  },
  {
    "nombre": "Puerto Fray Luis A Beltran",
    "provincia": "Santa Fe",
    "latitud": -32.8,
    "longitud": -60.71667
  },
  {
    "nombre": "Puerto Malabrigo",
    "provincia": "Santa Fe",
    "latitud": -29.5,
    "longitud": -59.61667
  },
  {
    "nombre": "Puerto Ocampo",
    "provincia": "Santa Fe",
    "latitud": -28.51667,
    "longitud": -59.13333
  },
  {
    "nombre": "Puerto Piracuacito",
    "provincia": "Santa Fe",
    "latitud": -28.2,
    "longitud": -59.1
  },
  {
    "nombre": "Puerto Reconquista",
    "provincia": "Santa Fe",
    "latitud": -29.23333,
    "longitud": -59.6
  },
  {
    "nombre": "Puerto San Lorenzo",
    "provincia": "Santa Fe",
    "latitud": -32.73333,
    "longitud": -60.73333
  },
  {
    "nombre": "Pujato",
    "provincia": "Santa Fe",
    "latitud": -33.01667,
    "longitud": -61.05
  },
  {
    "nombre": "Rafaela",
    "provincia": "Santa Fe",
    "latitud": -31.26667,
    "longitud": -61.48333
  },
  {
    "nombre": "Ramayon",
    "provincia": "Santa Fe",
    "latitud": -30.66667,
    "longitud": -60.5
  },
  {
    "nombre": "Ramona",
    "provincia": "Santa Fe",
    "latitud": -31.1,
    "longitud": -61.9
  },
  {
    "nombre": "Raquel",
    "provincia": "Santa Fe",
    "latitud": -30.83333,
    "longitud": -61.48333
  },
  {
    "nombre": "Rastreador Fournier",
    "provincia": "Santa Fe",
    "latitud": -33.86667,
    "longitud": -61.66667
  },
  {
    "nombre": "Reconquista",
    "provincia": "Santa Fe",
    "latitud": -29.15,
    "longitud": -59.65
  },
  {
    "nombre": "Recreo",
    "provincia": "Santa Fe",
    "latitud": -31.5,
    "longitud": -60.73333
  },
  {
    "nombre": "Ricardone",
    "provincia": "Santa Fe",
    "latitud": -32.76667,
    "longitud": -60.78333
  },
  {
    "nombre": "Ripamonti",
    "provincia": "Santa Fe",
    "latitud": -30.5,
    "longitud": -61.95
  },
  {
    "nombre": "Rivadavia",
    "provincia": "Santa Fe",
    "latitud": -32.91667,
    "longitud": -60.66667
  },
  {
    "nombre": "Roldan",
    "provincia": "Santa Fe",
    "latitud": -32.89778,
    "longitud": -60.90917
  },
  {
    "nombre": "Romang",
    "provincia": "Santa Fe",
    "latitud": -29.5,
    "longitud": -59.76667
  },
  {
    "nombre": "Rotonde de Humboldt",
    "provincia": "Santa Fe",
    "latitud": -31.40081,
    "longitud": -61.08251
  },
  {
    "nombre": "Rueda",
    "provincia": "Santa Fe",
    "latitud": -33.33333,
    "longitud": -60.45
  },
  {
    "nombre": "Rufino",
    "provincia": "Santa Fe",
    "latitud": -34.26667,
    "longitud": -62.7
  },
  {
    "nombre": "Runciman",
    "provincia": "Santa Fe",
    "latitud": -33.9,
    "longitud": -61.83333
  },
  {
    "nombre": "Sa Pereyra",
    "provincia": "Santa Fe",
    "latitud": -31.58333,
    "longitud": -61.38333
  },
  {
    "nombre": "Saguier",
    "provincia": "Santa Fe",
    "latitud": -31.33333,
    "longitud": -61.68333
  },
  {
    "nombre": "Saladero M Cabal",
    "provincia": "Santa Fe",
    "latitud": -30.9,
    "longitud": -60.01667
  },
  {
    "nombre": "San Antonio de Obligado",
    "provincia": "Santa Fe",
    "latitud": -28.36667,
    "longitud": -59.28333
  },
  {
    "nombre": "San Carlos Centro",
    "provincia": "Santa Fe",
    "latitud": -31.73333,
    "longitud": -61.1
  },
  {
    "nombre": "San Carlos Norte",
    "provincia": "Santa Fe",
    "latitud": -31.68333,
    "longitud": -61.08333
  },
  {
    "nombre": "San Carlos Sur",
    "provincia": "Santa Fe",
    "latitud": -31.75,
    "longitud": -61.1
  },
  {
    "nombre": "San Eduardo",
    "provincia": "Santa Fe",
    "latitud": -33.88333,
    "longitud": -62.11667
  },
  {
    "nombre": "San Estanislao",
    "provincia": "Santa Fe",
    "latitud": -32.9,
    "longitud": -61.51667
  },
  {
    "nombre": "San Fabian",
    "provincia": "Santa Fe",
    "latitud": -32.13333,
    "longitud": -60.98333
  },
  {
    "nombre": "San Francisco de Santa Fe",
    "provincia": "Santa Fe",
    "latitud": -33.6,
    "longitud": -62.13333
  },
  {
    "nombre": "San Genaro",
    "provincia": "Santa Fe",
    "latitud": -32.36667,
    "longitud": -61.35
  },
  {
    "nombre": "San Genaro Norte",
    "provincia": "Santa Fe",
    "latitud": -32.36667,
    "longitud": -61.33333
  },
  {
    "nombre": "San Javier",
    "provincia": "Santa Fe",
    "latitud": -30.58333,
    "longitud": -59.95
  },
  {
    "nombre": "San Jeronimo del Sauce",
    "provincia": "Santa Fe",
    "latitud": -31.61667,
    "longitud": -61.13333
  },
  {
    "nombre": "San Jeronimo Norte",
    "provincia": "Santa Fe",
    "latitud": -31.55,
    "longitud": -61.08333
  },
  {
    "nombre": "San Jeronimo Sur",
    "provincia": "Santa Fe",
    "latitud": -32.88333,
    "longitud": -61.03333
  },
  {
    "nombre": "San Jose de la Esquina",
    "provincia": "Santa Fe",
    "latitud": -33.11278,
    "longitud": -61.70917
  },
  {
    "nombre": "San Jose del Rincon",
    "provincia": "Santa Fe",
    "latitud": -31.6,
    "longitud": -60.58333
  },
  {
    "nombre": "San Martin de las Escobas",
    "provincia": "Santa Fe",
    "latitud": -31.85,
    "longitud": -61.58333
  },
  {
    "nombre": "San Martin Norte",
    "provincia": "Santa Fe",
    "latitud": -30.35,
    "longitud": -60.3
  },
  {
    "nombre": "San Ricardo",
    "provincia": "Santa Fe",
    "latitud": -33.03333,
    "longitud": -61.61667
  },
  {
    "nombre": "Sancti Spiritu",
    "provincia": "Santa Fe",
    "latitud": -34.01667,
    "longitud": -62.23333
  },
  {
    "nombre": "Sanford",
    "provincia": "Santa Fe",
    "latitud": -33.15,
    "longitud": -61.28333
  },
  {
    "nombre": "Santa Clara de Buena Vista",
    "provincia": "Santa Fe",
    "latitud": -31.76667,
    "longitud": -61.31667
  },
  {
    "nombre": "Santa Clara de Saguier",
    "provincia": "Santa Fe",
    "latitud": -31.35,
    "longitud": -61.83333
  },
  {
    "nombre": "Santa Emilia",
    "provincia": "Santa Fe",
    "latitud": -33.83333,
    "longitud": -61.51667
  },
  {
    "nombre": "Santa Fe de la Vera Cruz",
    "provincia": "Santa Fe",
    "latitud": -31.63333,
    "longitud": -60.7
  },
  {
    "nombre": "Santa Margarita",
    "provincia": "Santa Fe",
    "latitud": -28.3,
    "longitud": -61.55
  },
  {
    "nombre": "Santa Maria Norte",
    "provincia": "Santa Fe",
    "latitud": -31.51667,
    "longitud": -61.13333
  },
  {
    "nombre": "Santurce",
    "provincia": "Santa Fe",
    "latitud": -30.2,
    "longitud": -61.18333
  },
  {
    "nombre": "Sargento Cabral",
    "provincia": "Santa Fe",
    "latitud": -33.41667,
    "longitud": -60.61667
  },
  {
    "nombre": "Sastre",
    "provincia": "Santa Fe",
    "latitud": -31.75,
    "longitud": -61.83333
  },
  {
    "nombre": "Sauce Viejo",
    "provincia": "Santa Fe",
    "latitud": -31.76667,
    "longitud": -60.85
  },
  {
    "nombre": "Schiffner",
    "provincia": "Santa Fe",
    "latitud": -31.98333,
    "longitud": -62.05
  },
  {
    "nombre": "Serodino",
    "provincia": "Santa Fe",
    "latitud": -32.6075,
    "longitud": -60.95194
  },
  {
    "nombre": "Soldini",
    "provincia": "Santa Fe",
    "latitud": -33.03333,
    "longitud": -60.75
  },
  {
    "nombre": "Soledad",
    "provincia": "Santa Fe",
    "latitud": -30.61667,
    "longitud": -60.91667
  },
  {
    "nombre": "Sorrento",
    "provincia": "Santa Fe",
    "latitud": -32.9,
    "longitud": -60.68333
  },
  {
    "nombre": "Soutomayor",
    "provincia": "Santa Fe",
    "latitud": -30.93333,
    "longitud": -61.16667
  },
  {
    "nombre": "Stephenson",
    "provincia": "Santa Fe",
    "latitud": -33.4,
    "longitud": -60.55
  },
  {
    "nombre": "Suardi",
    "provincia": "Santa Fe",
    "latitud": -30.53333,
    "longitud": -61.96667
  },
  {
    "nombre": "Sunchales",
    "provincia": "Santa Fe",
    "latitud": -30.93333,
    "longitud": -61.56667
  },
  {
    "nombre": "Susana",
    "provincia": "Santa Fe",
    "latitud": -31.36667,
    "longitud": -61.51667
  },
  {
    "nombre": "Tacuarendi",
    "provincia": "Santa Fe",
    "latitud": -28.41667,
    "longitud": -59.3
  },
  {
    "nombre": "Tacural",
    "provincia": "Santa Fe",
    "latitud": -30.85,
    "longitud": -61.6
  },
  {
    "nombre": "Tarragona",
    "provincia": "Santa Fe",
    "latitud": -34.18333,
    "longitud": -62.55
  },
  {
    "nombre": "Tartagal",
    "provincia": "Santa Fe",
    "latitud": -28.66667,
    "longitud": -59.86667
  },
  {
    "nombre": "Teodelina",
    "provincia": "Santa Fe",
    "latitud": -34.18333,
    "longitud": -61.53333
  },
  {
    "nombre": "Theobald",
    "provincia": "Santa Fe",
    "latitud": -33.31667,
    "longitud": -60.31667
  },
  {
    "nombre": "Toba",
    "provincia": "Santa Fe",
    "latitud": -29.25,
    "longitud": -60.18333
  },
  {
    "nombre": "Tortugas",
    "provincia": "Santa Fe",
    "latitud": -32.73333,
    "longitud": -61.81667
  },
  {
    "nombre": "Tostado",
    "provincia": "Santa Fe",
    "latitud": -29.23333,
    "longitud": -61.76667
  },
  {
    "nombre": "Totoras",
    "provincia": "Santa Fe",
    "latitud": -32.58333,
    "longitud": -61.18333
  },
  {
    "nombre": "Traill",
    "provincia": "Santa Fe",
    "latitud": -31.91667,
    "longitud": -61.71667
  },
  {
    "nombre": "Umberto I",
    "provincia": "Santa Fe",
    "latitud": -30.86667,
    "longitud": -61.36667
  },
  {
    "nombre": "Union",
    "provincia": "Santa Fe",
    "latitud": -32.9,
    "longitud": -60.7
  },
  {
    "nombre": "Uranga",
    "provincia": "Santa Fe",
    "latitud": -33.26667,
    "longitud": -60.7
  },
  {
    "nombre": "Venado Tuerto",
    "provincia": "Santa Fe",
    "latitud": -33.74972,
    "longitud": -61.96694
  },
  {
    "nombre": "Vera",
    "provincia": "Santa Fe",
    "latitud": -29.46667,
    "longitud": -60.21667
  },
  {
    "nombre": "Vera y Pintado",
    "provincia": "Santa Fe",
    "latitud": -30.15,
    "longitud": -60.35
  },
  {
    "nombre": "Vicente A Echeverria",
    "provincia": "Santa Fe",
    "latitud": -32.81667,
    "longitud": -60.83333
  },
  {
    "nombre": "Videla",
    "provincia": "Santa Fe",
    "latitud": -30.93333,
    "longitud": -60.65
  },
  {
    "nombre": "Vila",
    "provincia": "Santa Fe",
    "latitud": -31.2,
    "longitud": -61.83333
  },
  {
    "nombre": "Villa Amelia",
    "provincia": "Santa Fe",
    "latitud": -33.18333,
    "longitud": -60.66667
  },
  {
    "nombre": "Villa America",
    "provincia": "Santa Fe",
    "latitud": -33.03333,
    "longitud": -60.78333
  },
  {
    "nombre": "Villa Ana",
    "provincia": "Santa Fe",
    "latitud": -28.48333,
    "longitud": -59.61667
  },
  {
    "nombre": "Villa Canas",
    "provincia": "Santa Fe",
    "latitud": -34.0,
    "longitud": -61.6
  },
  {
    "nombre": "Villa Chanar Ladeado",
    "provincia": "Santa Fe",
    "latitud": -33.3,
    "longitud": -62.05
  },
  {
    "nombre": "Villa Constitucion",
    "provincia": "Santa Fe",
    "latitud": -33.23333,
    "longitud": -60.33333
  },
  {
    "nombre": "Villa Diego",
    "provincia": "Santa Fe",
    "latitud": -33.01667,
    "longitud": -60.61667
  },
  {
    "nombre": "Villa Eloisa",
    "provincia": "Santa Fe",
    "latitud": -32.95,
    "longitud": -61.55
  },
  {
    "nombre": "Villa Estela",
    "provincia": "Santa Fe",
    "latitud": -33.7,
    "longitud": -61.31667
  },
  {
    "nombre": "Villa Fredriksson",
    "provincia": "Santa Fe",
    "latitud": -33.35,
    "longitud": -61.48333
  },
  {
    "nombre": "Villa Guillermina",
    "provincia": "Santa Fe",
    "latitud": -28.23333,
    "longitud": -59.46667
  },
  {
    "nombre": "Villa Minetti",
    "provincia": "Santa Fe",
    "latitud": -28.61667,
    "longitud": -61.65
  },
  {
    "nombre": "Villa Mugueta",
    "provincia": "Santa Fe",
    "latitud": -33.31667,
    "longitud": -61.06667
  },
  {
    "nombre": "Villa Ocampo",
    "provincia": "Santa Fe",
    "latitud": -28.46667,
    "longitud": -59.36667
  },
  {
    "nombre": "Villa Parque",
    "provincia": "Santa Fe",
    "latitud": -32.86667,
    "longitud": -60.73333
  },
  {
    "nombre": "Villa Regules",
    "provincia": "Santa Fe",
    "latitud": -33.41667,
    "longitud": -61.5
  },
  {
    "nombre": "Villa Saralegui",
    "provincia": "Santa Fe",
    "latitud": -30.55,
    "longitud": -60.75
  },
  {
    "nombre": "Villa Trinidad",
    "provincia": "Santa Fe",
    "latitud": -30.21667,
    "longitud": -61.88333
  },
  {
    "nombre": "Villada",
    "provincia": "Santa Fe",
    "latitud": -33.35,
    "longitud": -61.45
  },
  {
    "nombre": "Vilo",
    "provincia": "Santa Fe",
    "latitud": -31.18333,
    "longitud": -61.83333
  },
  {
    "nombre": "Virginia",
    "provincia": "Santa Fe",
    "latitud": -30.75,
    "longitud": -61.33333
  },
  {
    "nombre": "Vuelta del Paraguayo",
    "provincia": "Santa Fe",
    "latitud": -31.65,
    "longitud": -60.68333
  },
  {
    "nombre": "Wheelwright",
    "provincia": "Santa Fe",
    "latitud": -33.78333,
    "longitud": -61.21667
  },
  {
    "nombre": "Wildermuth",
    "provincia": "Santa Fe",
    "latitud": -31.95,
    "longitud": -61.4
  },
  {
    "nombre": "Zavalla",
    "provincia": "Santa Fe",
    "latitud": -33.01667,
    "longitud": -60.88333
  },
  {
    "nombre": "Zenon Pereyra",
    "provincia": "Santa Fe",
    "latitud": -31.56667,
    "longitud": -61.9
  }
]